City_ID,City,Lat,Lng,Max Temp,Humidity,Cloudiness,Wind Speed,Country,Date
0,vestmannaeyjar,63.4427,-20.2734,-5.02,55,20,9.07,IS,1678219967
1,flinders,-34.5833,150.8552,18.36,66,0,0.89,AU,1678219730
2,punta arenas,-53.15,-70.9167,15.06,44,40,15.43,CL,1678219971
3,east london,-33.0153,27.9116,22.18,88,100,4.31,ZA,1678219842
4,bonthe,7.5264,-12.505,26.26,73,98,4.1,SL,1678219973
5,bredasdorp,-34.5322,20.0403,18.16,82,95,1.21,ZA,1678219763
6,clarence town,-32.5833,151.7833,22.14,47,0,2.19,AU,1678219976
7,zeya,53.75,127.2667,-21.46,95,22,1.43,RU,1678219977
8,vaini,-21.2,-175.2,26.18,57,32,7.12,TO,1678219978
9,formosa,-26.1775,-58.1781,32.54,40,100,3.69,AR,1678219979
10,upernavik,72.7868,-56.1549,-12.45,96,70,3.4,GL,1678219713
11,rikitea,-23.1203,-134.9692,23.88,84,100,12.92,PF,1678219982
12,hithadhoo,-0.6,73.0833,27.95,75,24,5.54,MV,1678219983
13,barrow,71.2906,-156.7887,-5.99,86,100,3.6,US,1678219985
14,ushuaia,-54.8,-68.3,10.79,91,95,5.38,AR,1678219986
15,tarko-sale,64.9225,77.785,-29.58,99,10,5.15,RU,1678219988
16,hermanus,-34.4187,19.2345,19.33,85,100,4.13,ZA,1678219991
17,port elizabeth,-33.918,25.5701,21.29,97,20,8.23,ZA,1678219992
18,faanui,-16.4833,-151.75,27.94,71,100,6.82,PF,1678219994
19,najran,17.4924,44.1277,20.51,24,10,0.82,SA,1678219996
20,kahului,20.8947,-156.47,26.09,70,20,8.23,US,1678219717
21,westfield,42.1251,-72.7495,5.07,48,100,8.75,US,1678219471
22,yellowknife,62.456,-114.3525,-18.58,64,98,4.47,CA,1678219725
23,salalah,17.0151,54.0924,25.05,44,0,1.03,OM,1678220001
24,atuona,-9.8,-139.0333,26.26,76,39,3.93,PF,1678220003
25,obo,5.3998,26.4869,29.98,29,98,1.4,CF,1678220005
26,constitucion,-35.3333,-72.4167,18.96,69,99,3.57,CL,1678220006
27,muisne,0.6,-80.0333,27.87,76,100,4.26,EC,1678220008
28,ayan,56.45,138.1667,-16.44,85,100,2.11,RU,1678220009
29,ponta do sol,32.6667,-17.1,20.4,88,96,1.98,PT,1678220011
30,abu kamal,34.4506,40.9171,16.8,37,100,2.17,SY,1678220012
31,ust-maya,60.4167,134.5333,-21.63,100,100,0.76,RU,1678220015
32,vanderhoof,54.0166,-124.0198,-9.85,87,100,1.46,CA,1678220017
33,hasaki,35.7333,140.8333,2.22,61,0,2.72,JP,1678220019
34,hilo,19.7297,-155.09,25.85,75,100,3.6,US,1678219930
35,mata,40.683,-7.4592,12.78,83,100,3.47,PT,1678220021
36,hobart,-42.8794,147.3294,9.03,77,40,7.72,AU,1678220022
37,drumnadrochit,57.3344,-4.4799,-1.88,85,6,1.82,GB,1678220024
38,finspang,58.7058,15.7674,-1.41,91,100,7.2,SE,1678220026
39,victor harbor,-35.5667,138.6167,14.27,84,97,3.84,AU,1678220027
40,alice springs,-23.7,133.8833,16.75,51,4,2.57,AU,1678220029
41,ontario,34.0633,-117.6509,16.48,50,20,2.57,US,1678220030
42,juprelle,50.7077,5.5337,1.02,92,75,2.57,BE,1678220031
43,cape town,-33.9258,18.4232,23.54,67,100,3.13,ZA,1678219816
44,kodiak,57.79,-152.4072,1.73,80,0,0.0,US,1678219772
45,nordborg,55.0573,9.7408,-0.06,64,20,3.09,DK,1678220035
46,nioro,13.35,-15.75,34.6,9,60,3.08,GM,1678220036
47,jamestown,42.097,-79.2353,1.77,65,9,2.68,US,1678219976
48,kavaratti,10.5669,72.642,27.33,67,28,1.98,IN,1678220038
49,codrington,-38.2667,141.9667,11.91,59,100,5.01,AU,1678220040
50,chuy,-33.6971,-53.4616,26.99,68,21,4.67,UY,1678220041
51,parrita,9.5201,-84.3225,28.33,72,100,3.47,CR,1678220042
52,bluff,-46.6,168.3333,15.01,89,19,2.93,NZ,1678219860
53,murdochville,48.9583,-65.5006,-4.51,95,100,4.72,CA,1678220045
54,longyearbyen,78.2186,15.6401,-13.09,61,75,6.17,SJ,1678220046
55,mananjary,-21.2167,48.3333,25.41,92,84,1.74,MG,1678220047
56,guarapari,-20.6667,-40.4975,26.61,79,100,6.52,BR,1678220049
57,coihaique,-45.5752,-72.0662,14.34,47,40,4.63,CL,1678220050
58,mubi,10.2676,13.2644,29.95,11,9,0.51,NG,1678220052
59,tchibanga,-2.85,11.0333,22.47,98,100,0.93,GA,1678220053
60,kruisfontein,-34.0033,24.7314,19.29,94,100,6.3,ZA,1678220055
61,caravelas,-17.7125,-39.2481,27.44,74,67,3.33,BR,1678220056
62,castro,-24.7911,-50.0119,24.85,65,100,2.92,BR,1678220057
63,arraial do cabo,-22.9661,-42.0278,27.98,69,20,9.77,BR,1678220060
64,canico,32.6333,-16.85,20.4,88,20,1.54,PT,1678220061
65,banda,25.4833,80.3333,23.47,28,100,0.59,IN,1678220039
66,jambi,-1.6,103.6167,22.39,98,66,1.24,ID,1678220064
67,dikson,73.5069,80.5464,-37.22,99,43,2.96,RU,1678220065
68,nikolskoye,59.7035,30.7861,-8.06,98,73,1.85,RU,1678220066
69,husavik,66.0449,-17.3389,-7.34,84,100,9.42,IS,1678220068
70,mount gambier,-37.8333,140.7667,11.7,58,100,3.88,AU,1678220069
71,saldanha,-33.0117,17.9442,17.08,88,17,4.57,ZA,1678220071
72,tambopata,-12.7333,-69.1833,32.94,49,40,2.57,PE,1678220072
73,chokurdakh,70.6333,147.9167,-39.37,100,59,1.16,RU,1678220073
74,adrar,20.5022,-10.0711,26.44,11,0,4.94,MR,1678220075
75,mabaruma,8.2,-59.7833,25.05,90,96,2.68,GY,1678220076
76,georgetown,5.4112,100.3354,26.96,65,20,4.12,MY,1678220013
77,blackpool,53.8167,-3.05,0.75,53,3,2.09,GB,1678220078
78,kapaa,22.0752,-159.319,26.22,53,0,7.72,US,1678220079
79,ribeira grande,38.5167,-28.7,14.87,88,75,7.72,PT,1678220081
80,dicabisagan,17.0818,122.4157,20.44,89,27,2.08,PH,1678220082
81,quatre cocos,-20.2078,57.7625,25.06,82,92,5.75,MU,1678220083
82,shahpura,27.3833,75.9667,17.62,45,76,1.21,IN,1678220085
83,tasiilaq,65.6145,-37.6368,-7.91,80,55,2.21,GL,1678220087
84,cabo san lucas,22.8909,-109.9124,27.01,53,20,4.63,MX,1678220016
85,mahebourg,-20.4081,57.7,25.16,94,75,3.09,MU,1678220089
86,tiksi,71.6872,128.8694,-25.44,96,100,2.63,RU,1678220091
87,taoudenni,22.6783,-3.9836,28.16,9,0,1.36,ML,1678220092
88,ahipara,-35.1667,173.1667,17.41,80,2,0.86,NZ,1678220093
89,qaanaaq,77.484,-69.3632,-12.11,91,98,1.78,GL,1678220095
90,puerto ayora,-0.7393,-90.3518,29.98,92,100,4.92,EC,1678219818
91,port alfred,-33.5906,26.891,21.21,95,100,5.87,ZA,1678220097
92,kavieng,-2.5744,150.7967,24.43,91,100,2.51,PG,1678220098
93,zhob,31.3411,69.4481,15.21,53,0,0.89,PK,1678220099
94,albany,42.6001,-73.9662,1.08,59,100,3.58,US,1678219437
95,oshakati,-17.7833,15.6833,29.36,22,74,2.01,NA,1678219538
96,port-gentil,-0.7193,8.7815,27.98,83,20,5.14,GA,1678220103
97,kamenka,51.3223,42.7678,-0.08,98,100,5.34,RU,1678220105
98,shache,38.4167,77.2406,12.06,34,0,2.1,CN,1678220106
99,cockburn town,21.4612,-71.1419,25.98,53,20,1.54,TC,1678219887
100,waipawa,-41.4122,175.5153,14.23,82,19,2.31,NZ,1678220110
101,nanortalik,60.1432,-45.2371,-0.43,87,10,2.69,GL,1678220111
102,saucillo,28.0167,-105.2833,28.41,7,100,2.17,MX,1678219866
103,mar del plata,-38.0023,-57.5575,28.24,81,13,1.79,AR,1678219870
104,pangody,65.85,74.4859,-19.75,96,100,7.17,RU,1678220115
105,victoria,22.2855,114.1577,20.21,86,0,2.68,HK,1678219926
106,aykhal,66.0,111.5,-24.11,100,100,2.79,RU,1678220118
107,carnarvon,-24.8667,113.6333,25.66,74,0,7.27,AU,1678220119
108,nador,35.174,-2.9287,17.14,82,0,5.14,MA,1678220121
109,thompson,55.7435,-97.8558,-13.73,82,100,2.05,CA,1678220122
110,araouane,18.9048,-3.5265,26.5,8,80,4.4,ML,1678220123
111,alekseyevsk,57.8406,108.3492,-4.37,95,100,3.12,RU,1678220125
112,pavino,59.1139,46.1414,-6.75,96,100,2.58,RU,1678220127
113,lebu,-37.6167,-73.65,17.46,81,100,5.72,CL,1678220128
114,mataura,-46.1927,168.8643,14.14,89,47,1.21,NZ,1678220129
115,peniche,39.3558,-9.3811,16.27,96,100,6.83,PT,1678220131
116,saskylakh,71.9167,114.0833,-23.82,93,100,3.12,RU,1678219938
117,ormara,25.2088,64.6357,23.73,75,5,4.07,PK,1678220133
118,inuvik,68.3499,-133.7218,-19.58,65,20,3.09,CA,1678220135
119,alofi,-19.0595,-169.9187,25.22,88,100,3.58,NU,1678220122
120,abu dhabi,24.4667,54.3667,24.97,89,4,3.99,AE,1678219935
121,beringovskiy,63.05,179.3167,-25.26,89,5,2.12,RU,1678220138
122,filingue,14.3521,3.3168,32.62,8,100,4.12,NE,1678220140
123,cidreira,-30.1811,-50.2056,25.49,84,24,2.69,BR,1678220141
124,ternate,0.8,127.4,26.27,83,21,2.79,ID,1678220143
125,mogadishu,2.0371,45.3438,26.16,88,50,9.52,SO,1678220144
126,torbay,47.6666,-52.7314,2.37,95,100,8.75,CA,1678220145
127,sao joao da barra,-21.6403,-41.0511,29.05,82,31,8.35,BR,1678220147
128,mandera,3.9366,41.867,31.27,26,55,3.96,KE,1678220148
129,avarua,-21.2078,-159.775,31.03,74,20,6.17,CK,1678220122
130,busselton,-33.65,115.3333,14.11,67,91,6.35,AU,1678220150
131,sambava,-14.2667,50.1667,25.75,87,59,1.54,MG,1678220153
132,yenagoa,4.9247,6.2642,26.8,84,73,2.55,NG,1678220154
133,pacific grove,36.6177,-121.9166,13.34,57,75,2.24,US,1678220155
134,barhi,23.9,80.8,23.12,38,100,0.87,IN,1678220157
135,coquimbo,-29.9533,-71.3436,21.85,68,20,5.14,CL,1678220033
136,saint-pierre,-21.3393,55.4781,25.82,78,0,3.6,RE,1678220159
137,lavrentiya,65.5833,-171.0,-14.95,96,100,3.66,RU,1678220160
138,khatanga,71.9667,102.5,-36.92,100,96,2.03,RU,1678220162
139,rocha,-34.4833,-54.3333,28.02,60,99,5.13,UY,1678220163
140,yurginskoye,56.8189,67.3921,-5.45,97,100,1.79,RU,1678220165
141,mumford,5.2618,-0.759,27.67,78,99,3.72,GH,1678220167
142,bontang,0.1333,117.5,24.78,88,97,2.07,ID,1678220169
143,kearney,40.6995,-99.0815,0.95,75,100,4.12,US,1678220026
144,geraldton,-28.7667,114.6,23.23,40,0,5.66,AU,1678220174
145,lima,-12.0432,-77.0282,27.14,57,0,4.63,PE,1678219592
146,butaritari,3.0707,172.7902,27.4,74,50,6.38,KI,1678220176
147,tuatapere,-46.1333,167.6833,15.3,92,9,1.6,NZ,1678220113
148,port hawkesbury,45.6169,-61.3485,2.71,78,100,3.13,CA,1678220124
149,port augusta,-32.5,137.7667,14.28,65,22,1.86,AU,1678220180
150,gat,31.61,34.7642,14.67,100,96,2.7,IL,1678220160
151,komsomolskiy,40.4272,71.7189,9.4,76,99,2.06,UZ,1678220184
152,ambilobe,-13.2,49.05,23.89,84,92,1.52,MG,1678220186
153,deep river,46.1001,-77.4995,-3.36,77,100,7.15,CA,1678220188
154,cherskiy,68.75,161.3,-38.22,98,39,1.23,RU,1678220192
155,parintins,-2.6283,-56.7358,24.91,93,100,0.56,BR,1678220003
156,kargopol,61.5071,38.9456,-11.92,99,91,1.81,RU,1678220196
157,siirt,37.9326,41.9403,8.51,55,98,2.08,TR,1678220198
158,lompoc,34.6391,-120.4579,17.05,63,20,6.69,US,1678220199
159,muros,42.7762,-9.0603,15.61,80,100,10.15,ES,1678220200
160,namibe,-15.1961,12.1522,21.29,82,53,2.34,AO,1678220202
161,vila velha,-20.3297,-40.2925,26.97,83,40,4.12,BR,1678220169
162,marawi,7.9986,124.2928,20.19,96,94,0.98,PH,1678220204
163,urumqi,43.801,87.6005,3.53,65,0,2.0,CN,1678220205
164,shingu,33.7333,135.9833,8.22,48,0,2.44,JP,1678220207
165,trairi,-3.2778,-39.2689,27.8,74,10,4.95,BR,1678220180
166,kerema,-7.9631,145.7785,26.28,74,80,2.06,PG,1678220209
167,udpura,24.7167,75.9667,21.53,39,96,1.49,IN,1678220210
168,san blas,21.5167,-105.2667,34.94,49,99,4.24,MX,1678220212
169,verkhnevilyuysk,63.4453,120.3167,-32.23,100,74,1.92,RU,1678220214
170,sawakin,19.1059,37.3321,26.18,82,100,7.28,SD,1678220215
171,boddam,57.4667,-1.7833,-0.79,70,59,4.2,GB,1678220217
172,faya,18.3851,42.4509,17.06,62,76,1.77,SA,1678220218
173,tura,25.5198,90.2201,19.19,20,0,1.35,IN,1678220219
174,ilulissat,69.2167,-51.1,1.01,37,20,15.95,GL,1678220221
175,san patricio,28.017,-97.5169,30.97,53,37,7.55,US,1678220223
176,manfredonia,41.6259,15.9094,11.42,81,0,2.06,IT,1678220224
177,emerald,-23.5333,148.1667,23.52,80,100,4.19,AU,1678220226
178,zemio,5.0314,25.1361,29.54,37,100,1.33,CF,1678220227
179,ninghai,29.2892,121.4247,11.12,82,91,1.52,CN,1678220229
180,saint-philippe,-21.3585,55.7679,25.77,88,75,5.66,RE,1678220230
181,anzio,41.4853,12.6179,13.7,76,100,5.33,IT,1678220231
182,puerto colombia,10.9878,-74.9547,28.05,76,58,10.5,CO,1678220233
183,hirara,24.8,125.2833,19.66,56,1,4.27,JP,1678220235
184,bambous virieux,-20.3428,57.7575,25.14,94,75,3.09,MU,1678220236
185,santa fe,-31.6333,-60.7,35.01,37,100,1.79,AR,1678220180
186,lalibela,12.0333,39.0333,18.08,38,37,3.46,ET,1678220239
187,tuktoyaktuk,69.4541,-133.0374,-24.39,87,15,6.04,CA,1678220241
188,edson,53.5835,-116.4356,-11.94,67,0,3.09,CA,1678220152
189,urubicha,-15.3833,-62.95,30.46,59,96,2.33,BO,1678220244
190,esperance,-33.8667,121.9,17.49,66,100,2.48,AU,1678220245
191,gornyak,50.9942,81.4661,4.26,91,100,15.43,RU,1678220246
192,ambon,-3.6954,128.1814,25.69,15,40,2.57,ID,1678220248
193,gamba,-2.65,10.0,26.2,84,100,2.37,GA,1678220270
194,chodavaram,17.8333,82.95,22.91,58,83,0.42,IN,1678220271
195,manaure,11.7751,-72.4445,27.6,64,96,8.89,CO,1678220273
196,poum,-20.2333,164.0167,26.76,73,5,9.32,NC,1678220274
197,waki,34.0667,134.15,6.68,54,0,1.91,JP,1678220275
198,isangel,-19.55,169.2667,25.22,71,35,4.19,VU,1678220277
199,adre,13.4667,22.2,29.35,12,15,9.27,TD,1678220278
200,slave lake,55.2834,-114.769,-10.01,62,0,6.17,CA,1678220118
201,ulaangom,49.9811,92.0667,-12.06,92,100,1.11,MN,1678220280
202,san cristobal,7.7669,-72.225,26.74,46,100,1.53,VE,1678220086
203,srednekolymsk,67.45,153.6833,-37.79,99,93,2.18,RU,1678220283
204,tommot,58.9564,126.2925,-28.95,99,99,0.75,RU,1678220284
205,kaitangata,-46.2817,169.8464,14.88,77,98,1.91,NZ,1678220286
206,surt,31.2089,16.5887,18.16,62,96,6.24,LY,1678220287
207,port lincoln,-34.7333,135.8667,17.43,78,100,7.19,AU,1678220290
208,bitung,1.4451,125.1824,24.47,83,65,3.51,ID,1678220292
209,saint-francois,46.4154,3.9054,2.2,82,0,2.57,FR,1678220294
210,sinnamary,5.3833,-52.95,26.54,76,100,5.06,GF,1678220295
211,fort nelson,58.8053,-122.7002,-14.47,56,100,1.54,CA,1678220152
212,meulaboh,4.1363,96.1285,24.65,88,80,1.51,ID,1678220299
213,new norfolk,-42.7826,147.0587,9.4,78,95,1.34,AU,1678220300
214,upington,-28.4478,21.2561,26.21,25,0,4.63,ZA,1678220302
215,polewali,-3.4324,119.3435,24.02,89,66,1.16,ID,1678220303
216,pisco,-13.7,-76.2167,29.03,58,0,5.66,PE,1678220306
217,lorengau,-2.0226,147.2712,25.88,83,100,4.41,PG,1678220307
218,inta,66.0317,60.1659,-28.92,98,19,2.94,RU,1678220308
219,mitsamiouli,-11.3847,43.2844,27.38,72,100,4.43,KM,1678220310
220,margate,51.3813,1.3862,2.95,86,46,2.19,GB,1678220311
221,itoman,26.1247,127.6694,17.01,72,75,1.54,JP,1678220313
222,santa cruz del norte,23.1539,-81.9236,26.95,57,0,5.17,CU,1678220314
223,harper,4.375,-7.7169,27.26,82,76,3.44,LR,1678220316
224,bengkulu,-3.8004,102.2655,23.6,88,38,1.79,ID,1678220018
225,sarangani,5.4033,125.4636,27.05,78,20,3.51,PH,1678220318
226,aklavik,68.2191,-135.0107,-21.98,93,28,7.54,CA,1678220321
227,iqaluit,63.7506,-68.5145,-7.39,85,21,0.47,CA,1678220322
228,deputatskiy,69.3,139.9,-33.24,100,97,1.21,RU,1678220323
229,sao felix do xingu,-6.6447,-51.995,28.65,85,97,0.13,BR,1678220324
230,san antonio,29.4241,-98.4936,26.77,73,100,4.63,US,1678220326
231,luderitz,-26.6481,15.1594,16.51,90,0,4.01,NA,1678220327
232,beloha,-25.1667,45.05,22.92,91,100,5.73,MG,1678220328
233,matagami,49.7502,-77.6328,-8.88,93,100,6.83,CA,1678220330
234,laguna,38.421,-121.4238,13.36,53,40,3.09,US,1678220331
235,chaihe,44.7667,129.7,-1.02,82,11,2.19,CN,1678220332
236,opuwo,-18.0607,13.84,21.52,37,10,3.41,NA,1678220333
237,sasd,46.2552,18.1078,6.41,84,49,2.98,HU,1678220335
238,itarema,-2.9248,-39.9167,27.74,75,6,7.29,BR,1678220336
239,sitka,57.0531,-135.33,1.94,55,0,0.0,US,1678220337
240,bethel,41.3712,-73.414,7.93,44,0,6.69,US,1678220339
241,sulangan,11.1373,123.7228,25.71,84,6,8.5,PH,1678220340
242,aktash,50.3,87.7333,-7.34,86,100,3.7,RU,1678220341
243,janakkala,60.9,24.6,-7.33,88,100,3.95,FI,1678220343
244,viedma,-40.8135,-62.9967,23.9,28,38,6.51,AR,1678220344
245,aloleng,16.1307,119.7824,22.98,72,6,3.5,PH,1678220346
246,clyde river,70.4692,-68.5914,-14.17,93,60,3.92,CA,1678220347
247,guayaramerin,-10.8368,-65.3614,27.64,83,90,2.11,BO,1678220348
248,mnogovershinnyy,53.9353,139.9242,-18.71,99,85,0.99,RU,1678220350
249,salamiyah,35.0113,37.0532,11.86,68,100,0.69,SY,1678220351
250,trat,12.5,102.5,24.93,92,5,0.37,TH,1678220353
251,korla,41.7597,86.1469,8.32,48,0,1.37,CN,1678220356
252,pevek,69.7008,170.3133,-35.09,97,10,0.64,RU,1678220357
253,souillac,-20.5167,57.5167,25.21,94,75,3.09,MU,1678220358
254,belomorsk,64.5232,34.7668,-17.17,100,97,1.73,RU,1678220360
255,duki,30.1541,68.5728,17.62,35,4,0.28,PK,1678220361
256,nacala,-14.5428,40.6728,24.3,94,100,2.2,MZ,1678220363
257,sao filipe,14.8961,-24.4956,23.65,71,0,1.66,CV,1678220364
258,norman wells,65.282,-126.8329,-20.98,71,0,5.66,CA,1678220367
259,baykit,61.67,96.37,-7.25,88,95,5.07,RU,1678220368
260,carutapera,-1.195,-46.02,25.42,93,100,4.21,BR,1678220370
261,kinna,57.5073,12.6946,-2.76,91,100,6.05,SE,1678220371
262,khanu woralaksaburi,16.0617,99.8606,23.81,42,6,1.79,TH,1678220372
263,sakakah,29.9697,40.2064,17.76,40,69,4.89,SA,1678220374
264,coahuayana,18.7333,-103.6833,30.77,46,48,3.87,MX,1678220375
265,havre-saint-pierre,50.2334,-63.5986,5.2,81,100,6.17,CA,1678220377
266,jilib,0.4883,42.7854,25.02,88,85,3.49,SO,1678220240
267,suez,29.9737,32.5263,15.69,65,38,4.95,EG,1678220379
268,agadir,30.4202,-9.5982,17.25,78,3,1.42,MA,1678220337
269,falmouth,50.1544,-5.0711,7.59,82,100,6.69,GB,1678220382
270,flagstaff,35.1981,-111.6513,11.81,31,0,8.23,US,1678220282
271,bobrov,51.0961,40.0333,0.52,97,100,5.37,RU,1678220384
272,fallon,39.4735,-118.7774,5.93,34,75,2.57,US,1678220385
273,kuandian,40.7286,124.7847,2.54,95,95,1.26,CN,1678220387
274,bella union,-30.2752,-57.6007,34.77,24,54,3.16,UY,1678220388
275,ngorongoro,-3.2397,35.4875,13.47,54,54,1.45,TZ,1678220389
276,jalu,29.0331,21.5482,18.81,26,0,4.72,LY,1678220390
277,fortuna,40.5982,-124.1573,5.52,96,75,5.66,US,1678220393
278,abbeville,50.1,1.8333,4.71,98,100,1.95,FR,1678220394
279,phan thiet,10.9333,108.1,20.72,80,84,2.2,VN,1678220395
280,ouadda,8.0777,22.4007,26.66,37,43,1.72,CF,1678220397
281,leh,34.1667,77.5833,-16.14,71,6,1.43,IN,1678220398
282,cabedelo,-6.9811,-34.8339,29.37,74,100,6.54,BR,1678220399
283,dudinka,69.4058,86.1778,-29.1,94,100,4.3,RU,1678220401
284,acapulco,16.8634,-99.8901,28.9,65,0,6.17,MX,1678219855
285,bathsheba,13.2167,-59.5167,28.34,65,40,7.2,BB,1678220403
286,morondava,-20.2833,44.2833,27.12,75,23,9.71,MG,1678220405
287,kyshtovka,56.555,76.6271,-6.19,95,100,5.3,RU,1678220406
288,atar,20.5169,-13.0499,29.23,11,0,4.42,MR,1678220408
289,port moresby,-9.4431,147.1797,22.68,94,40,4.12,PG,1678220409
290,sistranda,63.7256,8.834,-4.02,38,89,2.26,NO,1678220411
291,troitsko-pechorsk,62.7084,56.1964,-13.08,88,100,2.26,RU,1678220413
292,airai,-8.9266,125.4092,15.07,90,100,0.8,TL,1678220414
293,scarborough,54.2797,-0.4044,0.37,80,80,1.44,GB,1678220415
294,zuwarah,32.9312,12.082,15.6,72,8,4.06,LY,1678220417
295,nong kung si,16.65,103.3,21.98,56,5,2.07,TH,1678220418
296,cachira,7.741,-73.0483,16.91,90,100,0.4,CO,1678220420
297,samoded,63.6083,40.5111,-9.69,99,100,1.72,RU,1678220421
298,acajutla,13.5928,-89.8275,29.88,56,53,5.02,SV,1678220423
299,labuhan,-6.8844,112.2051,24.74,86,100,1.95,ID,1678220425
300,darhan,49.4867,105.9228,-1.77,62,100,3.57,MN,1678220426
301,tarakan,3.3,117.6333,25.86,82,100,4.02,ID,1678220428
302,umea,63.8284,20.2597,-7.83,86,100,3.6,SE,1678220188
303,whitehorse,60.7161,-135.0538,-11.06,72,20,3.09,CA,1678220431
304,kayseri,38.737,35.4968,4.01,52,75,2.06,TR,1678220326
305,anderson,34.5334,-82.6499,27.49,21,0,2.06,US,1678220247
306,severo-kurilsk,50.6789,156.125,0.41,94,100,6.14,RU,1678220435
307,arteaga,18.4667,-102.4167,30.89,24,6,2.39,MX,1678220436
308,kayerkan,69.3497,87.7602,-29.71,75,93,1.67,RU,1678220438
309,nanakuli,21.3906,-158.1547,23.95,50,100,5.14,US,1678220439
310,sechura,-5.5569,-80.8222,27.34,69,100,4.88,PE,1678220441
311,abu samrah,35.3029,37.1841,12.01,66,100,1.7,SY,1678220442
312,vaitape,-16.5167,-151.75,28.0,71,100,6.96,PF,1678220443
313,lerwick,60.1545,-1.1494,-3.0,59,85,7.37,GB,1678220445
314,kazachinskoye,57.6953,93.2761,-5.9,93,88,3.01,RU,1678220446
315,imbituba,-28.24,-48.6703,31.03,67,32,4.08,BR,1678220448
316,la seyne-sur-mer,43.0982,5.8847,11.97,79,100,1.79,FR,1678220449
317,omsukchan,62.5333,155.8,-24.33,98,100,1.63,RU,1678220450
318,luvianos,18.9167,-100.4,30.38,16,2,3.05,MX,1678220451
319,touros,-5.1989,-35.4608,27.86,74,94,6.99,BR,1678220453
320,waingapu,-9.6567,120.2641,25.04,87,97,2.27,ID,1678220454
321,cayenne,4.9333,-52.3333,29.02,70,100,4.12,GF,1678220455
322,iguai,-14.7564,-40.0892,28.44,54,79,4.03,BR,1678220281
323,soe,-9.8607,124.284,18.22,94,93,1.42,ID,1678220459
324,nyurba,63.2842,118.3319,-31.72,99,49,1.94,RU,1678220460
325,tecoanapa,16.5167,-98.75,28.76,60,100,4.59,MX,1678220461
326,port hardy,50.6996,-127.4199,7.1,76,75,6.17,CA,1678220463
327,kupang,-10.1667,123.5833,25.0,86,100,0.88,ID,1678220465
328,rafsanjan,30.4067,55.9939,17.97,37,44,5.26,IR,1678220466
329,zaraza,9.3503,-65.3245,36.89,23,81,2.9,VE,1678220468
330,oktyabrskiy,54.4815,53.471,-5.81,94,100,2.7,RU,1678220469
331,tanabe,33.7333,135.3667,9.44,50,0,1.73,JP,1678220471
332,erenhot,43.6475,111.9767,0.91,46,16,3.45,CN,1678220473
333,xiaoweizhai,26.1903,107.5125,13.99,96,100,0.35,CN,1678220474
334,pangai,-19.8,-174.35,27.06,61,75,4.12,TO,1678220476
335,ust-omchug,61.15,149.6333,-32.12,100,82,0.52,RU,1678220478
336,port macquarie,-31.4333,152.9167,19.94,68,4,1.45,AU,1678220482
337,salinas,36.6777,-121.6555,13.56,53,40,1.54,US,1678220483
338,loa janan,-0.583,117.095,22.43,97,99,0.72,ID,1678220485
339,sidi ali,36.0998,0.4206,13.82,86,11,5.66,DZ,1678220486
340,provideniya,64.3833,-173.3,-9.42,94,100,2.12,RU,1678220488
341,kamaishi,39.2667,141.8833,6.22,85,2,3.24,JP,1678220489
342,xining,36.6167,101.7667,2.03,55,7,0.83,CN,1678220491
343,markala,13.7021,-6.0659,30.45,8,89,4.32,ML,1678220492
344,asosa,10.0667,34.5333,26.19,28,77,0.16,ET,1678220493
345,baruun-urt,46.6806,113.2792,-4.34,52,99,3.45,MN,1678220499
346,fontem,5.4685,9.8818,22.18,82,61,0.42,CM,1678220500
347,derzhavinsk,51.1,66.3167,-3.32,93,100,7.94,KZ,1678220502
348,maniitsoq,65.4167,-52.9,-0.13,79,4,5.97,GL,1678220503
349,port blair,11.6667,92.75,25.88,75,4,3.97,IN,1678220505
350,buraydah,26.326,43.975,23.25,43,100,10.28,SA,1678220207
351,winneba,5.3511,-0.6231,27.82,77,93,3.82,GH,1678220507
352,ondjiva,-17.0667,15.7333,26.02,50,53,1.03,AO,1678220508
353,ailigandi,9.2333,-78.0167,26.93,73,60,4.82,PA,1678220509
354,kisaran,2.9845,99.6158,22.27,97,100,0.92,ID,1678220511
355,lensk,60.7253,114.9278,-14.15,97,100,2.07,RU,1678220514
356,xiuyan,40.2928,123.2744,3.25,90,79,1.75,CN,1678220515
357,north platte,41.1239,-100.7654,-1.6,86,100,3.6,US,1678220516
358,santa elena,-2.2333,-80.85,25.75,94,75,3.09,EC,1678220415
359,guerrero negro,27.9769,-114.0611,16.74,59,57,9.78,MX,1678220519
360,lufilufi,-13.8745,-171.5986,28.88,78,98,8.53,WS,1678220522
361,farmington,36.7281,-108.2187,14.87,9,0,2.24,US,1678220524
362,nybro,56.7446,15.9071,0.58,94,94,4.83,SE,1678220527
363,sao gabriel da cachoeira,-0.1303,-67.0892,28.89,79,20,2.06,BR,1678220528
364,ancud,-41.8697,-73.8203,16.28,60,51,3.23,CL,1678220529
365,ribeira brava,32.65,-17.0667,20.0,84,95,2.18,PT,1678220531
366,katsuura,35.1333,140.3,12.75,63,0,2.98,JP,1678220532
367,teya,60.3778,92.6267,-9.95,92,93,2.75,RU,1678220534
368,galesong,-5.3166,119.3661,24.01,84,98,2.69,ID,1678220536
369,nanlong,31.3533,106.0631,13.58,85,100,1.19,CN,1678220538
370,puerto palomas,31.7667,-107.6167,19.87,22,100,7.97,MX,1678220539
371,luganville,-15.5333,167.1667,26.16,85,20,1.29,VU,1678220541
372,ziyang,29.2497,117.8547,15.54,54,97,1.05,CN,1678220543
373,hede,33.7681,120.2517,12.73,53,100,3.5,CN,1678220544
374,aktau,43.65,51.2,-1.68,68,0,3.29,KZ,1678220545
375,wanaka,-44.7,169.15,15.62,87,100,0.89,NZ,1678220547
376,sur,22.5667,59.5289,24.71,51,5,3.01,OM,1678220548
377,upata,8.0086,-62.3989,29.91,45,91,3.52,VE,1678220550
378,mayor pablo lagerenza,-19.9309,-60.7718,39.78,25,42,4.76,PY,1678220551
379,shakiso,5.75,38.9167,19.09,42,61,2.16,ET,1678220553
380,kikwit,-5.041,18.8162,20.81,95,99,1.41,CD,1678220555
381,kerman,30.2832,57.0788,13.92,41,40,2.06,IR,1678220557
382,aragarcas,-15.8975,-52.2508,32.36,58,40,2.06,BR,1678220551
383,nieuw amsterdam,5.8833,-55.0833,26.19,88,40,1.03,SR,1678220559
384,wanning,18.8003,110.3967,19.23,86,13,0.95,CN,1678220562
385,talara,-4.5772,-81.2719,29.42,70,40,5.14,PE,1678220564
386,kiruna,67.8557,20.2251,-18.49,85,75,1.03,SE,1678220566
387,hualmay,-11.0964,-77.6139,25.97,67,100,3.38,PE,1678220567
388,barabai,-2.5833,115.3833,22.39,98,84,0.31,ID,1678220568
389,portland,45.5234,-122.6762,9.15,79,75,3.13,US,1678220110
390,talcahuano,-36.7167,-73.1167,17.82,77,75,4.63,CL,1678220416
391,znamenskoye,57.1281,73.8282,-6.51,95,100,2.94,RU,1678220572
392,necochea,-38.5473,-58.7368,21.38,75,99,5.67,AR,1678220425
393,billings,45.7833,-108.5007,0.16,73,40,1.34,US,1678220574
394,leningradskiy,69.3833,178.4167,-32.58,96,96,0.81,RU,1678220575
395,west bay,19.3667,-81.4167,27.26,81,75,3.09,KY,1678220577
396,bar harbor,44.3876,-68.2039,2.93,67,100,4.12,US,1678220578
397,tabou,4.423,-7.3528,26.87,85,98,3.6,CI,1678220581
398,kidal,18.4411,1.4078,28.44,6,93,5.16,ML,1678220584
399,oranjestad,12.524,-70.027,27.97,69,40,9.26,AW,1678220457
400,aitape,-3.1374,142.3475,23.84,90,100,1.93,PG,1678220586
401,sandwick,60.0,-1.25,-3.1,74,20,3.6,GB,1678220588
402,bernburg,51.8,11.7333,1.66,86,100,5.05,DE,1678220215
403,myre,69.1036,15.9492,-7.03,52,100,4.57,NO,1678220592
404,francisco sa,-16.4758,-43.4883,31.08,49,97,2.93,BR,1678220594
405,quzhou,28.9594,118.8686,15.06,55,100,0.61,CN,1678220595
406,bubaque,11.2833,-15.8333,24.99,70,95,5.53,GW,1678220597
407,ariano irpino,41.1489,15.0833,8.03,90,38,5.05,IT,1678220598
408,santa cruz,-17.8,-63.1667,30.03,66,75,6.69,BO,1678220384
409,pingliang,35.5392,106.6861,8.48,31,0,1.52,CN,1678220601
410,chabahar,25.2919,60.643,24.43,66,0,3.32,IR,1678220604
411,narsaq,60.9167,-46.05,2.12,80,9,2.57,GL,1678220605
412,saint-joseph,-21.3667,55.6167,25.21,85,76,5.78,RE,1678220607
413,sayyan,15.1718,44.3244,14.58,25,1,2.72,YE,1678220608
414,antalaha,-14.9003,50.2788,25.0,87,97,1.66,MG,1678220610
415,plettenberg bay,-34.0527,23.3716,18.16,92,50,2.25,ZA,1678220611
416,mozarlandia,-14.7447,-50.5706,30.79,63,69,1.13,BR,1678220613
417,tautira,-17.7333,-149.15,26.42,82,14,5.32,PF,1678220614
418,bereda,43.2686,-7.5406,12.45,88,100,4.96,ES,1678220616
419,magadan,59.5667,150.8,-23.29,99,87,2.48,RU,1678220617
420,teguise,29.0605,-13.564,18.12,73,20,4.12,ES,1678220620
421,san ramon,37.7799,-121.978,13.09,60,40,3.09,US,1678220498
422,manaus,-3.1019,-60.025,26.28,83,75,1.03,BR,1678220624
423,dalnerechensk,45.9339,133.7225,-1.87,92,100,5.81,RU,1678220625
424,nome,64.5011,-165.4064,1.2,100,100,8.23,US,1678220305
425,bossangoa,6.4926,17.4552,29.55,15,100,0.58,CF,1678220627
426,moss point,30.4116,-88.5345,30.19,69,75,2.57,US,1678220629
427,asbestos,45.7668,-71.9324,-3.26,93,100,4.89,CA,1678220631
428,eureka,40.8021,-124.1637,5.67,94,100,1.34,US,1678220632
429,razole,16.4833,81.8333,21.97,78,100,0.8,IN,1678220634
430,sobolevo,54.4299,31.8996,-12.76,98,81,2.64,RU,1678220635
431,ostrovnoy,68.0531,39.5131,-16.66,97,93,2.97,RU,1678220472
432,pozo colorado,-23.4923,-58.7972,30.03,68,100,2.35,PY,1678220637
433,kasangulu,-4.5911,15.1708,23.03,85,100,0.18,CD,1678220639
434,neusiedl am see,47.9357,16.8325,6.16,88,100,2.24,AT,1678220640
435,palembang,-2.9167,104.7458,24.05,100,40,2.06,ID,1678220641
436,yeniseysk,58.4497,92.1703,-8.49,97,95,1.6,RU,1678220644
437,bowen,-20.0167,148.2333,25.76,85,98,4.76,AU,1678220622
438,mogok,22.9167,96.5,16.61,46,0,0.82,MM,1678220647
439,ponta delgada,37.7333,-25.6667,16.4,88,20,6.69,PT,1678220648
440,bay city,43.5945,-83.8889,5.03,51,0,4.63,US,1678220395
441,tsaratanana,-16.7833,47.65,22.45,92,95,0.4,MG,1678220651
442,avera,33.194,-82.5271,28.08,38,0,4.56,US,1678220653
443,grindavik,63.8424,-22.4338,-6.74,58,20,12.35,IS,1678220656
444,miri,4.4148,114.0089,24.08,94,40,0.51,MY,1678220654
445,el triunfo,-1.9333,-79.9667,28.02,86,100,3.92,EC,1678220658
446,saint anthony,45.0205,-93.218,3.96,56,0,5.66,US,1678220660
447,san vicente,-26.6167,-54.1333,32.52,23,2,1.87,AR,1678220662
448,sisimiut,66.9395,-53.6735,-2.01,71,10,3.41,GL,1678220663
449,odweyne,9.4092,45.064,21.38,59,8,3.24,SO,1678220664
450,roma,43.2128,-75.4557,0.46,61,100,8.23,US,1678220416
451,rakiv lis,51.6217,24.9243,1.12,81,100,5.22,UA,1678220667
452,mahajanga,-15.7167,46.3167,25.01,94,75,1.03,MG,1678220668
453,chalmette,29.9427,-89.9634,28.33,68,75,3.09,US,1678220499
454,barbacoas,1.6715,-78.1398,28.03,84,100,2.15,CO,1678220671
455,solnechnyy,50.7214,136.6319,-14.25,94,49,1.92,RU,1678220674
456,los llanos de aridane,28.6585,-17.9182,16.86,93,20,2.57,ES,1678220675
457,jaciara,-15.9653,-54.9683,31.72,54,100,1.2,BR,1678220677
458,hamilton,39.1834,-84.5333,10.91,46,0,7.72,US,1678220521
459,mundo nuevo,18.7,-95.5,26.97,69,100,4.78,MX,1678220679
460,talnakh,69.4865,88.3972,-29.33,93,93,0.6,RU,1678220681
461,tarbagatay,51.4803,107.3602,-7.26,94,100,1.52,RU,1678220682
462,qinzhou,21.95,108.6167,18.99,80,0,2.3,CN,1678220683
463,abha,18.2164,42.5053,16.9,63,0,0.0,SA,1678220570
464,khilok,51.3674,110.4676,-6.75,91,100,1.4,RU,1678220686
465,elko,41.0002,-115.5012,-4.97,68,54,1.79,US,1678220687
466,mount pleasant,32.7941,-79.8626,30.08,37,0,5.14,US,1678220081
467,przasnysz,53.0191,20.8803,3.54,92,100,9.27,PL,1678220689
468,chulman,56.8479,124.9104,-31.74,100,69,1.21,RU,1678220691
469,hambantota,6.1241,81.1185,24.85,83,0,6.98,LK,1678220692
470,jieshi,22.8134,115.8257,17.33,87,16,2.62,CN,1678220693
471,cobija,-11.0267,-68.7692,32.1,62,75,5.14,BO,1678220694
472,pandan,14.0453,124.1694,24.36,79,97,5.72,PH,1678220696
473,kurchum,48.5722,83.6542,2.93,85,100,6.46,KZ,1678220698
474,shimoda,34.6667,138.95,8.95,54,0,3.55,JP,1678220699
475,svetlyy,54.675,20.1347,1.03,77,100,9.57,RU,1678220701
476,asyut,27.181,31.1837,15.1,29,0,3.77,EG,1678220702
477,bara,10.3744,10.7288,29.15,11,55,0.85,NG,1678220704
478,esmeraldas,-19.7625,-44.3139,29.06,76,100,0.94,BR,1678220705
479,kandrian,-6.2167,149.55,24.77,87,100,2.54,PG,1678220709
480,havelock,34.8791,-76.9013,26.99,41,4,4.92,US,1678220710
481,post falls,47.718,-116.9516,5.86,64,0,2.06,US,1678220547
482,saint george,37.1041,-113.5841,13.86,37,0,1.79,US,1678220713
483,saint-denis,48.9167,2.3333,8.27,71,100,6.17,FR,1678220350
484,kuchera,26.9839,73.9719,22.65,36,95,2.55,IN,1678220715
485,oparino,59.8518,48.2783,-5.77,96,100,2.44,RU,1678220717
486,flin flon,54.7682,-101.865,-14.09,43,0,2.06,CA,1678220718
487,aranos,-24.1333,19.1167,25.71,10,8,7.74,NA,1678220505
488,bila krynytsya,50.6398,29.4704,-0.31,82,47,2.71,UA,1678220721
489,sibolga,1.7427,98.7792,24.22,92,100,2.1,ID,1678220722
490,kloulklubed,7.0419,134.2556,24.28,79,43,6.24,PW,1678220725
491,beni mazar,28.4962,30.8029,16.35,32,0,4.47,EG,1678220726
492,mont-dore,-22.2833,166.5833,26.11,99,7,2.96,NC,1678220727
493,aliaga,15.5167,120.8667,22.72,91,0,1.13,PH,1678220729
494,jalingo,8.8833,11.3667,31.53,21,72,0.97,NG,1678220732
495,atbasar,51.8,68.3333,-2.48,89,96,9.72,KZ,1678220734
496,nuuk,64.1835,-51.7216,0.49,80,15,10.28,GL,1678220735
497,hollins,37.3413,-79.9431,15.21,33,40,10.8,US,1678220737
498,nazira,26.9167,94.7333,19.41,57,2,0.64,IN,1678220738
499,lamar,33.6668,-95.5836,25.76,89,100,5.66,US,1678220740
500,wadi maliz,36.4681,8.5495,15.81,68,95,0.74,TN,1678220741
501,bambanglipuro,-7.95,110.2833,24.26,86,18,1.27,ID,1678220742
502,ketchikan,55.3422,-131.6461,-0.74,40,20,4.12,US,1678220744
503,vila franca do campo,37.7167,-25.4333,16.23,87,56,9.28,PT,1678220745
504,daru,-9.0763,143.2092,24.83,89,91,5.18,PG,1678220746
505,khandyga,62.6667,135.6,-25.91,100,99,1.17,RU,1678220747
506,madras,13.0878,80.2785,26.99,74,20,1.54,IN,1678220749
507,raga,8.4596,25.678,29.01,33,16,1.57,SS,1678220750
508,chenghai,23.4632,116.768,11.95,87,4,0.0,CN,1678220751
509,mackay,-21.15,149.2,24.82,83,35,3.99,AU,1678220753
510,sindi,20.8,78.8667,19.49,43,1,2.36,IN,1678220754
511,soyaniquilpan,19.9833,-99.5,25.88,6,6,4.66,MX,1678220755
512,moose factory,51.2585,-80.6094,-6.0,53,0,8.75,CA,1678220757
513,windhoek,-22.5594,17.0832,22.11,16,3,1.54,NA,1678220638
514,egvekinot,66.3167,-179.1667,-22.83,84,100,4.43,RU,1678220759
515,paraiso,9.8383,-83.8656,24.95,87,100,1.55,CR,1678220760
516,vardo,70.3705,31.1107,-13.01,72,0,9.77,NO,1678220763
517,tilichiki,60.4667,166.1,-11.77,93,100,3.1,RU,1678220764
518,palaia fokaia,37.72,23.9463,14.4,78,15,7.06,GR,1678220766
519,saint-leu,-21.15,55.2833,25.48,95,96,2.8,RE,1678220767
520,ouallam,14.3188,2.0866,30.72,9,100,1.68,NE,1678220769
521,chandbali,20.7833,86.7667,22.33,68,100,3.22,IN,1678220771
522,impfondo,1.6381,18.0667,26.59,61,96,1.57,CG,1678220773
523,aqtobe,50.2797,57.2072,-5.95,86,0,3.0,KZ,1678220774
524,san quintin,30.4833,-115.95,14.95,60,100,8.88,MX,1678220775
525,klaksvik,62.2266,-6.589,-2.49,58,100,12.11,FO,1678220777
526,birin,26.8865,88.0718,12.22,45,0,2.23,NP,1678220778
527,lagoa,39.05,-27.9833,14.93,81,4,14.47,PT,1678220780
528,vao,-22.6667,167.4833,24.79,58,37,5.02,NC,1678220781
529,aracoiaba,-4.3711,-38.8142,28.13,70,16,4.08,BR,1678220783
530,asheboro,35.7079,-79.8136,23.5,15,0,8.75,US,1678220604
531,bonfim,3.0833,-59.95,33.69,39,100,3.34,BR,1678220785
532,usevya,-7.1,31.2333,22.69,74,100,0.45,TZ,1678220787
533,fort saint james,54.4333,-124.25,-9.33,86,100,1.19,CA,1678220788
534,aguimes,27.9054,-15.4461,17.35,77,0,3.09,ES,1678220789
535,porto novo,6.4965,2.6036,28.9,76,100,3.59,BJ,1678220791
536,ostuacan,17.4167,-93.3,26.45,65,100,2.05,MX,1678220792
537,vanavara,60.34,102.2797,-5.52,90,100,5.11,RU,1678220794
538,kuzhener,56.8111,48.9128,-8.53,96,88,3.63,RU,1678220795
539,garissa,-0.4536,39.6401,29.44,53,51,7.31,KE,1678220796
540,troy,42.6056,-83.1499,6.04,42,0,5.14,US,1678220798
541,moroni,-11.7022,43.2551,26.14,79,75,4.5,KM,1678220778
542,puerto cabezas,14.0351,-83.3888,27.98,83,40,4.12,NI,1678220801
543,sangar,63.9242,127.4739,-34.92,100,100,0.31,RU,1678220802
544,verkhoturye,58.8627,60.8054,-8.87,96,100,2.59,RU,1678220803
545,vorona,47.5967,26.6448,4.84,70,90,2.43,RO,1678220805
546,jiwani,25.05,61.7417,24.25,68,0,2.63,PK,1678220806
547,leer,53.2316,7.461,0.53,94,57,3.21,DE,1678220807
548,yar-sale,66.8333,70.8333,-20.69,93,100,8.14,RU,1678220808
549,ghanzi,-21.5667,21.7833,26.55,46,100,3.4,BW,1678220810
550,kropotkin,45.4375,40.5756,4.72,68,23,3.95,RU,1678220811
551,srivardhan,18.0333,73.0167,25.49,50,6,2.52,IN,1678220812
552,padang,-0.9492,100.3543,24.78,86,74,1.97,ID,1678220814
553,rosarito,32.3333,-117.0333,16.8,58,98,5.33,MX,1678220165
554,artesia,33.8658,-118.0831,18.27,56,0,3.6,US,1678220816
555,rio cauto,20.5603,-76.9161,34.65,25,0,2.28,CU,1678220817
556,beidao,34.5686,105.8933,10.14,63,50,0.36,CN,1678220819
557,karratha,-20.7377,116.8463,29.38,71,97,4.9,AU,1678220820
558,balakhta,55.38,91.6,-13.29,96,100,1.49,RU,1678220821
559,cururupu,-1.8283,-44.8683,25.41,92,99,2.82,BR,1678220823
560,ngaoundere,7.3167,13.5833,24.67,13,42,2.04,CM,1678220824
561,hofn,64.2539,-15.2082,-4.68,65,14,13.1,IS,1678220825
562,palmer,42.1584,-72.3287,4.8,49,75,9.77,US,1678220827
563,nacozari,25.3366,-108.2574,26.43,25,100,4.33,MX,1678220828
564,ninh binh,20.2539,105.975,19.29,95,9,1.88,VN,1678220830
565,guarumal,8.35,-82.5333,25.05,94,75,2.57,PA,1678220831
